City_ID,City,Country,Max Temp,Current Description,Lat,Lng,Hotel Name
0,Los Llanos De Aridane,ES,60.55,clear sky,28.6585,-17.9182,Valle Aridane
1,Saint-Philippe,RE,74.79,light rain,-21.3585,55.7679,"Chambres d'hôte ""La Trinité"""
2,Moose Factory,CA,39.2,overcast clouds,51.2585,-80.6094,Moosonee Lilypad
3,Flower Mound,US,87.22,broken clouds,33.0146,-97.097,A Unique Boutique & Spa
4,Butaritari,KI,81.14,broken clouds,3.0707,172.7902,Isles Sunset Lodge
6,Rikitea,PF,77.63,clear sky,-23.1203,-134.9692,People ThankYou
8,Owando,CG,70.65,broken clouds,-0.4819,15.8999,Exaunel Hotel Owando
9,Olinda,BR,83.93,clear sky,-8.0089,-34.8553,Flat Quatro Rodas Olinda
10,Hobart,AU,52.05,broken clouds,-42.8794,147.3294,St Ives Hobart Accommodation Tasmania
11,Praia,CV,70.34,few clouds,14.9215,-23.5087,LT Aparthotel
12,Bredasdorp,ZA,58.01,overcast clouds,-34.5322,20.0403,Bredasdorp Country Manor
13,Narsaq,GL,26.82,broken clouds,60.9167,-46.05,Sleep In Narsaq
14,Perwez,BE,50.23,few clouds,50.6167,4.8167,B&B La chambre d'à Côté
15,Gat,IL,64.4,overcast clouds,31.61,34.7642,OlusHome
16,Mataura,NZ,53.47,broken clouds,-46.1927,168.8643,Ellie's Villa
17,Marovoay,MG,79.3,clear sky,-16.1,46.6333,Hôtel les Oliviers Marovoay
18,Jamestown,US,62.53,broken clouds,42.097,-79.2353,Hampton Inn & Suites Jamestown
19,Port Alfred,ZA,60.51,light rain,-33.5906,26.891,The Halyards Hotel
20,Punta Arenas,CL,50.11,few clouds,-53.15,-70.9167,Hotel Hain
21,Busselton,AU,58.44,few clouds,-33.65,115.3333,Observatory Guest House
22,Cape Town,ZA,59.11,clear sky,-33.9258,18.4232,"Radisson Blu Hotel Waterfront, Cape Town"
23,Lebu,CL,55.67,few clouds,-37.6167,-73.65,Hostal Las Lilas
24,Vitim,RU,6.66,overcast clouds,59.4511,112.5578,Gostinitsa V Apteke
25,Constitucion,CL,55.62,clear sky,-35.3333,-72.4167,Hotel Boutique Las Azucenas
26,Gold Coast,AU,68.04,scattered clouds,-28.0,153.4333,Mantra Towers of Chevron Surfers Paradise
27,Bafoulabe,ML,96.71,scattered clouds,13.8065,-10.8321,Logement du Chargé SIS Abdoul Karim Konaté
28,Wolfsburg,DE,49.05,overcast clouds,52.4333,10.8,"The Ritz-Carlton, Wolfsburg"
29,Hithadhoo,MV,82.63,broken clouds,-0.6,73.0833,Scoop Guest House
30,Severnyy,RU,51.84,clear sky,50.677,36.5532,Full House North Mini-Hotel
31,Quixada,BR,77.68,broken clouds,-4.9714,-39.0153,Hotel Vale das Pedras
32,Khatanga,RU,17.91,overcast clouds,71.9667,102.5,"""Khatanga"""
33,Hilo,US,82.27,light rain,19.7297,-155.09,Hilo Hawaiian Hotel
34,Hermanus,ZA,53.8,broken clouds,-34.4187,19.2345,Misty Waves Boutique Hotel
35,Geraldton,AU,59.41,clear sky,-28.7667,114.6,Broadwater Mariner Resort
36,Kapaa,US,79.12,broken clouds,22.0752,-159.319,Sheraton Kauai Coconut Beach Resort
37,Puerto Ayora,EC,78.76,overcast clouds,-0.7393,-90.3518,Finch Bay Galapagos Hotel
38,Faanui,PF,82.04,light rain,-16.4833,-151.75,Bora-Bora Pearl Beach Resort & Spa
39,Ushuaia,AR,47.86,broken clouds,-54.8,-68.3,Albatross Hotel
40,Bluff,NZ,53.8,scattered clouds,-46.6,168.3333,Bluff Homestead - Guesthouse & Campervan Park
41,Hay River,CA,21.16,broken clouds,60.8156,-115.7999,Ptarmigan Inn
42,Rio Grande,BR,66.31,broken clouds,-32.035,-52.0986,Hotel Atlântico Rio Grande
43,Saint George,US,76.42,clear sky,37.1041,-113.5841,Best Western Plus Abbey Inn
44,Dillon,US,77.25,scattered clouds,34.4166,-79.3712,Dillon Express Inn
45,Aiken,US,77.58,clear sky,33.5835,-81.5998,Aiken Cottages
46,Kailua,US,82.02,scattered clouds,21.4022,-157.7394,Sheffield House Bed & Breakfast
47,Karratha,AU,83.14,broken clouds,-20.7377,116.8463,ibis Styles Karratha
48,Iqaluit,CA,8.33,few clouds,63.7506,-68.5145,Frobisher Inn
49,Amboasary,MG,74.89,overcast clouds,-25.0333,46.3833,Le Bon Samaritain
50,Maniitsoq,GL,24.1,overcast clouds,65.4167,-52.9,Hotel Heilmann Lyberth
51,Dudinka,RU,16.84,scattered clouds,69.4058,86.1778,Hotel Viktoria
52,Atuona,PF,78.87,few clouds,-9.8,-139.0333,Villa Enata
53,San Fernando,PH,76.73,broken clouds,15.0286,120.6898,Maharlika Hostel
54,Concordia,AR,68.07,clear sky,-31.393,-58.0209,Palmar Hotel Casino
55,Yulara,AU,71.44,scattered clouds,-25.2406,130.9889,Desert Gardens Hotel - Ayers Rock Resort
57,Trairi,BR,78.46,broken clouds,-3.2778,-39.2689,janelas do mar
58,Bambous Virieux,MU,77.25,light rain,-20.3428,57.7575,Casa Tia Villa
59,Grand-Lahou,CI,79.7,light rain,5.1367,-5.0242,Hotel Beatitude de Grand Lahou
60,Acajutla,SV,86.86,broken clouds,13.5928,-89.8275,Laureles
61,East London,ZA,62.04,overcast clouds,-33.0153,27.9116,Tu Casa
62,Avarua,CK,78.85,few clouds,-21.2078,-159.775,Paradise Inn
64,Jaru,BR,76.91,overcast clouds,-10.4389,-62.4664,Hotel Paraná
65,Imbituba,BR,67.82,few clouds,-28.24,-48.6703,Praia Hotel Imbituba
66,Yellowknife,CA,21.72,broken clouds,62.456,-114.3525,The Explorer Hotel
67,Lompoc,US,73.69,clear sky,34.6391,-120.4579,"Holiday Inn Express Lompoc, an IHG Hotel"
68,Guerrero Negro,MX,67.14,overcast clouds,27.9769,-114.0611,"Casa Laguna, Bed & Breakfast"
69,Sao Joao Da Barra,BR,73.49,overcast clouds,-21.6403,-41.0511,Pousada Porto De Canoas
70,Vaini,TO,82.56,few clouds,-21.2,-175.2,Keleti Beach Resort
71,Shubarkuduk,KZ,46.13,clear sky,49.1447,56.4872,Sirius
73,Port Blair,IN,77.04,mist,11.6667,92.75,"Welcomhotel By ITC Hotels, Bay Island, Port Blair"
74,Cairns,AU,76.06,broken clouds,-16.9167,145.7667,Mantra Trilogy Cairns
75,Burns Lake,CA,38.62,overcast clouds,54.2331,-125.7533,Burns Lake Bed and Breakfast
76,Mar Del Plata,AR,63.09,clear sky,-38.0023,-57.5575,Gran Hotel Mar del Plata
77,Two Rivers,US,45.36,few clouds,44.1539,-87.5693,Lighthouse Inn On Lake Michigan
80,Izberbash,RU,46.45,scattered clouds,42.5696,47.8645,Ramina
81,Namibe,AO,71.62,broken clouds,-15.1961,12.1522,Hotel Chik Chik Namibe
82,Raudeberg,NO,45.86,overcast clouds,61.9875,5.1352,Nordre Silda.
85,Barrow,US,2.59,clear sky,71.2906,-156.7887,King Eider Inn
86,Hofn,IS,44.94,broken clouds,64.2539,-15.2082,Hótel Höfn
87,Vila Franca Do Campo,PT,63.01,scattered clouds,37.7167,-25.4333,Pestana Bahia Praia
88,Ust-Nera,RU,10.49,overcast clouds,64.5667,143.2,Hotel Ust-Nera
89,Bourail,NC,76.08,broken clouds,-21.5667,165.4833,Motel Allamanda
90,Nemuro,JP,33.85,overcast clouds,43.3236,145.575,Hotel Nemuro Kaiyoutei
91,Kaputa,ZM,68.25,light rain,-8.4689,29.6619,Chelelwa Charlets
92,Meulaboh,ID,76.91,broken clouds,4.1363,96.1285,Kost Pria
93,Grindavik,IS,48.15,light intensity drizzle,63.8424,-22.4338,Northern Light Inn & Max's Restaurant
96,Dalvik,IS,49.93,overcast clouds,65.9702,-18.5286,Dalvík HI Hostel
97,Esperance,AU,55.24,scattered clouds,-33.8667,121.9,Hospitality Esperance
98,Vila Velha,BR,76.95,overcast clouds,-20.3297,-40.2925,Hotel Vitória Palace
99,Codrington,AU,58.96,scattered clouds,-38.2667,141.9667,Codrington Gardens Bed And Breakfast
101,Puerto Escondido,MX,87.06,broken clouds,15.85,-97.0667,Aldea del Bazar Hotel and Spa
103,Mount Isa,AU,76.77,clear sky,-20.7333,139.5,ibis Styles Mt Isa Verona
104,Thompson,CA,24.96,overcast clouds,55.7435,-97.8558,Burntwood Hotel
105,Mahibadhoo,MV,83.66,overcast clouds,3.7833,72.9667,Omadhoo Inn
106,Tutoia,BR,79.12,broken clouds,-2.7619,-42.2744,Pousada Guará's
107,Nosy Varika,MG,74.64,light rain,-20.5833,48.5333,Hotel Volazara
108,Comodoro Rivadavia,AR,71.46,clear sky,-45.8667,-67.5,Austral Hotel
110,Deputatskiy,RU,6.42,overcast clouds,69.3,139.9,Baza Otdykha
111,Makakilo City,US,80.56,broken clouds,21.3469,-158.0858,Marriott's Ko Olina Beach Club
112,Port-Gentil,GA,80.71,scattered clouds,-0.7193,8.7815,Fengshui Residence
113,Kodiak,US,36.59,moderate rain,57.79,-152.4072,Best Western Kodiak Inn And Convention Center
114,Talnakh,RU,24.94,overcast clouds,69.4865,88.3972,Talnakh Hotel
115,Kutum,SD,74.25,broken clouds,14.2,24.6667,Dibbo areaمنطقة دبو
117,Nanchang,CN,52.03,moderate rain,28.6833,115.8833,Ruidu Hotel
118,Kaeo,NZ,64.33,broken clouds,-35.1,173.7833,Bushido Lodge
120,Karpathos,GR,60.76,overcast clouds,35.507,27.2132,Alex
121,Marquette,US,29.34,overcast clouds,46.5333,-87.6335,Al Quaal Lodge
124,Kiama,AU,63.57,overcast clouds,-34.6833,150.8667,The Sebel Kiama Harbourside
125,New Norfolk,AU,52.72,overcast clouds,-42.7826,147.0587,The Shingles Riverside Cottages
127,Samarai,PG,82.89,overcast clouds,-10.6167,150.6667,Nuli Sapi
128,Lufkin,US,79.48,overcast clouds,31.3382,-94.7291,Courtyard by Marriott Lufkin
130,Souillac,MU,77.38,light rain,-20.5167,57.5167,Shanti Maurice Resort & Spa
131,Bubaque,GW,74.53,clear sky,11.2833,-15.8333,"Casa Dora, Bubaque"
132,Barra,BR,78.24,broken clouds,-11.0894,-43.1417,Motel Albatroz
133,Longyearbyen,SJ,26.44,light snow,78.2186,15.6401,"Radisson Blu Polar Hotel, Spitsbergen"
134,Castro,BR,53.01,clear sky,-24.7911,-50.0119,CHACARA BAILLY
136,Salekhard,RU,15.24,overcast clouds,66.53,66.6019,Hotel 89
137,North Platte,US,48.11,scattered clouds,41.1239,-100.7654,"Holiday Inn Express & Suites North Platte, an IHG Hotel"
138,Port Elizabeth,ZA,57.49,clear sky,-33.918,25.5701,39 On Nile Guest House
139,Ofunato,JP,41.31,light rain,39.0717,141.7167,Ofunato Hot Spring
140,Camaqua,BR,61.14,broken clouds,-30.8511,-51.8122,Bartz Hotel
141,Basti,IN,83.59,scattered clouds,26.8,82.7167,SPOT ON 43231 Hotel Aura Inn SPOT
142,Half Moon Bay,US,72.54,clear sky,37.4636,-122.4286,"The Ritz-Carlton, Half Moon Bay"
144,Corinto,GR,56.89,overcast clouds,37.9407,22.9573,Ephira Hotel
145,Grand Gaube,MU,77.4,light rain,-20.0064,57.6608,Veranda Paul et Virginie Hotel & Spa
146,Bengkulu,ID,76.71,overcast clouds,-3.8004,102.2655,Grage Hotel Bengkulu
147,Cidreira,BR,63.97,scattered clouds,-30.1811,-50.2056,Hotel Castelo
148,Reo,BF,92.8,overcast clouds,12.3167,-2.4667,Hôtel Deogratias
149,Lethem,GY,80.65,scattered clouds,3.3803,-59.7968,Savannah Inn
150,Naze,JP,63.52,overcast clouds,28.3667,129.4833,Shishime Hotel
151,Baculin,PH,76.69,scattered clouds,7.4525,126.5842,Baculin Cove Beach Resort
152,Georgetown,MY,80.55,thunderstorm,5.4112,100.3354,Cititel Penang
153,Sitka,US,44.33,clear sky,57.0531,-135.33,Westmark Sitka
154,Qingyuan,CN,73.38,overcast clouds,23.7,113.0333,Guojin Commercial Hotel
155,La Asuncion,VE,78.37,overcast clouds,11.0333,-63.8628,Colinas de Matasiete
156,Sao Filipe,CV,71.47,clear sky,14.8961,-24.4956,Hotel Xaguate
157,Inirida,CO,78.44,overcast clouds,3.8653,-67.9239,Fuente del Guania Hotel de Lujo
158,Banda Aceh,ID,80.26,overcast clouds,5.5577,95.3222,OYO 884 Rumoh PMI Hotel
159,Roseburg,US,54.18,overcast clouds,43.2165,-123.3417,"Holiday Inn Express Roseburg, an IHG Hotel"
160,Kudirkos Naumiestis,LT,38.21,overcast clouds,54.7731,22.8631,Border Lithuania-Russia
161,Iralaya,HN,82.8,overcast clouds,15.0,-83.2333,Iglesia morava renovada
162,Marfino,RU,44.51,light intensity shower rain,55.7028,37.3822,Nemchinovka-Park
163,Pauini,BR,77.32,overcast clouds,-7.7136,-66.9764,Casa do Kiwliks
164,Veracruz,MX,89.83,scattered clouds,19.3333,-96.6667,El Carrizal
165,Nikolskoye,RU,38.88,overcast clouds,59.7035,30.7861,Tourist House - Sablino
166,Sault Sainte Marie,CA,28.96,broken clouds,46.5168,-84.3333,Comfort Inn
168,Haines Junction,CA,37.35,clear sky,60.7522,-137.5108,Parkside Inn
169,Rantepao,ID,67.95,light rain,-2.9701,119.8978,Hotel Luta Resort
170,Bardiyah,LY,61.38,overcast clouds,31.7561,25.0865,بورتو بردية
171,Mahebourg,MU,77.29,broken clouds,-20.4081,57.7,Shandrani Beachcomber Resort & Spa
174,Ladario,BR,84.29,clear sky,-19.0047,-57.6017,Hotel Fazenda 4 cantos
175,Cabo San Lucas,MX,85.6,broken clouds,22.8909,-109.9124,Hotel Tesoro Los Cabos
177,Mosquera,CO,68.09,broken clouds,4.7059,-74.2302,Hotel SJ
178,Sumbe,AO,77.31,overcast clouds,-11.2061,13.8437,Hotel Ritz Sumbe
181,Ribeira Grande,PT,60.37,overcast clouds,38.5167,-28.7,Quinta da Meia Eira
182,Dicabisagan,PH,75.38,overcast clouds,17.0818,122.4157,Nancy Montanes Bernardo
183,San Patricio,US,85.06,broken clouds,28.017,-97.5169,"Motel 6 Sinton, TX"
184,Richards Bay,ZA,68.63,light rain,-28.783,32.0377,BON Hotel Waterfront Richards Bay
185,Arraial Do Cabo,BR,73.26,few clouds,-22.9661,-42.0278,Pousada Porto Praia
186,Ojhar,IN,74.52,clear sky,20.1,73.9333,Aurangabad Deogaon Rangari
187,Ribas Do Rio Pardo,BR,70.23,clear sky,-20.4431,-53.7592,Pousada Avenida
188,Stephenville,US,92.19,clear sky,32.2207,-98.2023,La Quinta Inn & Suites by Wyndham Stephenville
189,Severo-Kurilsk,RU,31.6,broken clouds,50.6789,156.125,Kak Doma
191,Faya,SA,66.31,overcast clouds,18.3851,42.4509,املاك خالد الشعشوع
192,West Odessa,US,95.41,broken clouds,31.8424,-102.4988,Corporate Mobile Housing
193,Sinjar,IQ,58.24,overcast clouds,36.3209,41.8754,زوماني فون 1
194,Kajaani,FI,33.85,clear sky,64.2273,27.7285,Original Sokos Hotel Valjus
195,Bethel,US,67.05,few clouds,41.3712,-73.414,Courtyard by Marriott Danbury
196,Phuket,TH,88.12,few clouds,8.0,98.25,The Surin
197,Marmora,IT,52.47,clear sky,44.4583,7.094,Locanda Occitana Lou Pitavin
198,Vardo,NO,35.74,light rain,70.3705,31.1107,Vardø Hotel AS
199,Hashtrud,IR,43.34,overcast clouds,37.4779,47.0508,Mahan Hotel
200,Ponta Do Sol,PT,67.01,overcast clouds,32.6667,-17.1,Hotel do Campo
201,Taltal,CL,62.01,few clouds,-25.4,-70.4833,Residencial Karime
202,Sao Miguel,BR,83.17,scattered clouds,-5.4667,-35.3667,CEJ - Centro Escoteiro da Juventude
203,Fukue,JP,55.42,overcast clouds,32.6881,128.8419,Goto Guesthouse Utojuku & SA Car Rental
205,Port Hardy,CA,46.58,scattered clouds,50.6996,-127.4199,Airport Inn-Port Hardy
206,Rawson,AR,72.28,clear sky,-43.3002,-65.1023,Hosteria Sampedro
209,Tasiilaq,GL,34.88,snow,65.6145,-37.6368,The Red House
211,Ancud,CL,59.23,scattered clouds,-41.8697,-73.8203,Hotel Arena Gruesa
212,Vestmannaeyjar,IS,47.44,overcast clouds,63.4427,-20.2734,Glamping & Camping
213,Qeshm,IR,80.49,overcast clouds,26.9581,56.2719,Qeshm Kavan Hotel
214,Saldanha,ZA,57.25,clear sky,-33.0117,17.9442,Blue Bay Lodge
215,Touros,BR,80.1,few clouds,-5.1989,-35.4608,INN NEW HORIZON
217,Norman Wells,CA,12.24,broken clouds,65.282,-126.8329,Heritage Hotel
219,Broken Hill,AU,58.71,clear sky,-31.95,141.4333,Royal Exchange Hotel
220,Flinders,AU,63.37,overcast clouds,-34.5833,150.8552,Shellharbour Resort & Conference Centre
221,Bonavista,CA,32.68,scattered clouds,48.6499,-53.1147,Sweet Sharons bnb
223,Inta,RU,19.81,overcast clouds,66.0317,60.1659,Apartments in Inta city
225,Pevek,RU,14.02,scattered clouds,69.7008,170.3133,Severnoye Zoloto
226,Hauterive,FR,56.75,clear sky,46.0901,3.4459,Aletti Palace Hotel
229,Kargasok,RU,39.0,overcast clouds,59.0556,80.8572,Hotel Kargasok
230,Huntley,US,49.41,overcast clouds,42.1681,-88.4281,Suites On Main
231,Itarema,BR,78.75,broken clouds,-2.9248,-39.9167,"Sea Lounge! Bar, Club & Restaurant"
232,Zharkent,KZ,57.06,clear sky,44.1628,80.0,гостиница Satti
233,Dalbandin,PK,79.57,clear sky,28.8947,64.4101,Sanjrani House
235,Chimoio,MZ,71.46,broken clouds,-19.1164,33.4833,Predio Livraria Ahmed
236,Zabaykalsk,RU,33.24,overcast clouds,49.6333,117.3167,Zheleznyy Mir
237,Purwakarta,ID,77.36,overcast clouds,-6.5569,107.4433,Sindang kasih tempat kost
238,Vao,NC,75.4,overcast clouds,-22.6667,167.4833,Hotel Kou-Bugny
239,Fairbanks,US,37.09,clear sky,64.8378,-147.7164,Westmark Fairbanks Hotel & Conference Center
240,Lata,PT,53.82,overcast clouds,40.1629,-8.3327,Casa Maquia
241,Andra,RU,31.51,overcast clouds,62.5147,65.8878,"Gostinitsa ""Ob'"""
242,Rio Branco Do Sul,BR,57.81,clear sky,-25.19,-49.3142,DR Hotel Rio Branco do Sul
243,San Juan,AR,73.76,few clouds,-31.5375,-68.5364,Hotel Provincial
244,San Carlos De Bariloche,AR,56.93,broken clouds,-41.1456,-71.3082,Hotel Patagonia
245,Pochutla,MX,89.82,overcast clouds,15.7432,-96.4661,Hotel Posada San Jose
246,Sungaipenuh,ID,65.08,overcast clouds,-2.0833,101.3833,Penginapan Citra Alam
247,Carnarvon,AU,78.91,scattered clouds,-24.8667,113.6333,Hospitality Carnarvon
248,Fortuna,US,52.86,clear sky,40.5982,-124.1573,Super 8 by Wyndham Fortuna
249,Nouakchott,MR,66.13,clear sky,18.0858,-15.9785,HOTEL IMAN
250,Baillif,GP,80.1,clear sky,16.0202,-61.7463,Hôtel Saint-Georges
251,Chuy,UY,62.53,broken clouds,-33.6971,-53.4616,Nuevo Hotel Plaza
252,Hambantota,LK,77.34,few clouds,6.1241,81.1185,Bungalow 63
253,Oranjestad,AW,78.53,broken clouds,12.524,-70.027,Divi Village Golf & Beach Resort
254,Krasnoselkup,RU,29.43,light snow,65.7,82.4667,Krasnosel'kupnefteprodukt
255,Saint-Pierre,RE,75.9,clear sky,-21.3393,55.4781,Lindsey Hôtel
256,Sfantu Gheorghe,RO,56.26,overcast clouds,45.8667,25.7833,Hotel Park
257,Alofi,NU,81.09,broken clouds,-19.0595,-169.9187,Taloa Heights
258,Esso,RU,19.63,overcast clouds,55.9333,158.7,Paramushir Tur
259,Champerico,GT,86.36,scattered clouds,14.3,-91.9167,"Hotel y restaurante ""El Diamante"""
260,Port Hedland,AU,75.25,few clouds,-20.3167,118.5667,The Esplanade Hotel
261,Boyolangu,ID,74.53,broken clouds,-8.1181,111.8935,Yos ega cv
263,Balkhash,KZ,47.91,clear sky,46.844,74.9804,Family
264,Marsa Matruh,EG,61.03,broken clouds,31.3525,27.2453,Beau Site
265,Nyurba,RU,14.77,overcast clouds,63.2842,118.3319,"Гостиница ""Comfort"""
266,Bathsheba,BB,78.15,overcast clouds,13.2167,-59.5167,Atlantis Hotel
267,Susurluk,TR,53.83,clear sky,39.9136,28.1578,Çağan Pansiyon
268,Talavera,PH,75.94,broken clouds,15.6167,120.9333,R&G's Resort
269,Katsuura,JP,50.02,overcast clouds,35.1333,140.3,Katsuura Hotel Mikazuki
270,Lodhran,PK,80.82,clear sky,29.5405,71.6336,Gulshan e khalil
271,Marigot,MF,79.75,clear sky,18.0667,-63.0833,"Sonesta Maho Beach Resort, Casino & Spa"
272,Coquimbo,CL,62.33,few clouds,-29.9533,-71.3436,Hotel San Juan
273,Eagle Pass,US,90.27,overcast clouds,28.7091,-100.4995,"Holiday Inn Express & Suites Eagle Pass, an IHG Hotel"
274,Klaksvik,FO,50.92,overcast clouds,62.2266,-6.589,Airbnb rooms
276,Kungalv,SE,39.11,few clouds,57.871,11.9805,Hotell Fars Hatt
277,Pisco,PE,69.03,broken clouds,-13.7,-76.2167,Hotel San Isidro Oficial
278,Valparaiso,CL,59.47,clear sky,-33.0393,-71.6273,Hotel Ultramar
280,Ballina,AU,66.02,overcast clouds,-28.8667,153.5667,Ramada Hotel & Suites by Wyndham Ballina Byron
281,Hun,LY,76.82,clear sky,29.1268,15.9477,Alrwasi Hotel
282,Ulcinj,ME,57.42,broken clouds,41.9294,19.2244,Hotel Palata Venezia
283,Brownwood,US,96.12,clear sky,31.7093,-98.9912,La Quinta Inn & Suites by Wyndham Brownwood
284,Tomatlan,MX,86.45,overcast clouds,19.9333,-105.25,El Salvial
285,College,US,36.07,broken clouds,64.8569,-147.8028,Pike's Waterfront Lodge
286,Murray Bridge,AU,62.13,clear sky,-35.1167,139.2667,Balcony On Sixth Lodge
287,Wicklow,IE,50.09,scattered clouds,53.0,-6.4167,Glenmalure Hostel
288,Korla,CN,46.71,clear sky,41.7597,86.1469,Gulisitan Hotel
289,Sayyan,YE,59.81,clear sky,15.1718,44.3244,ملاطف ابوحورية
290,Chandler,US,90.61,clear sky,33.3062,-111.8412,"Crowne Plaza Hotels & Resorts Phoenix - Chandler Golf Resort, an IHG Hotel"
291,Wellington,NZ,64.06,scattered clouds,-41.2866,174.7756,CityLife Wellington
292,Adilcevaz,TR,39.36,broken clouds,38.8039,42.7342,Adilcevaz Ogretmen Evi
293,Fort Nelson,CA,34.7,broken clouds,58.8053,-122.7002,The Fort Nelson Hotel
294,Petrykivka,UA,50.99,broken clouds,48.7298,34.6351,Молодежное Общежитие при ПТУ #79
295,Patacamaya,BO,56.8,clear sky,-17.2333,-67.9167,RESIDENCIAL ISLA VIGU
296,Xining,CN,37.99,overcast clouds,36.6167,101.7667,Super Leisure Hotel
297,Miyang,CN,60.91,few clouds,24.4042,103.4428,Huibinlou Hotel
298,Kitob,UZ,67.06,clear sky,39.0843,66.8332,KESH HOTEL
299,Kwinana,AU,60.82,few clouds,-32.25,115.7667,Rockingham Apartments
300,Lagoa,PT,58.75,overcast clouds,39.05,-27.9833,Casa Das Faias
301,Namatanai,PG,81.99,light rain,-3.6667,152.4333,Seagulls Inn Namatani
302,Hasaki,JP,46.8,overcast clouds,35.7333,140.8333,Inubosaki Kanko Hotel
304,Eyl,SO,82.63,overcast clouds,7.9803,49.8164,Amiin Hotel
306,Muli,MV,83.53,few clouds,2.9167,73.5667,Medhufushi Island Resort
307,Sao Jose Da Coroa Grande,BR,80.33,few clouds,-8.8978,-35.1478,Crôa Mares Hotel
308,Zomba,MW,67.05,scattered clouds,-15.386,35.3188,Trout Farm Campsite
309,Sinnamary,GF,77.72,overcast clouds,5.3833,-52.95,ALETHEIA Appartement Sinnamary
310,Churapcha,RU,15.98,scattered clouds,62.0025,132.4325,"""Tusku"""
311,Ondjiva,AO,72.86,overcast clouds,-17.0667,15.7333,COMBUESA
312,Zachary,US,79.74,overcast clouds,30.6485,-91.1565,"Holiday Inn Express & Suites Baton Rouge North, an IHG Hotel"
314,Ilulissat,GL,15.82,broken clouds,69.2167,-51.1,Hotel Arctic
315,Riyadh,SA,82.0,overcast clouds,24.6877,46.7219,"InterContinental Riyadh, an IHG Hotel"
316,Brae,GB,45.46,broken clouds,60.3964,-1.353,Busta House Hotel
317,Salalah,OM,77.41,clear sky,17.0151,54.0924,"HAMDAN PLAZA HOTEL SALALAH, an HTG Hotel"
318,Mount Gambier,AU,60.71,mist,-37.8333,140.7667,The Commodore
319,Las Palmas,ES,63.39,clear sky,28.4204,-14.0131,Casillas De Morales 59.
320,Oistins,BB,78.24,overcast clouds,13.0667,-59.5333,Butterfly Beach Hotel
321,Porto Santo,PT,61.18,scattered clouds,33.072,-16.3415,Hotel Porto Santo & Spa
322,Deder,ET,59.25,light rain,9.3167,41.45,Entoto Hotel
323,Usinsk,RU,21.04,overcast clouds,65.9939,57.5281,Dobro Pozhalovaty
324,Campos Gerais,BR,62.58,clear sky,-21.235,-45.7586,Hotel Paraíso
325,Zafra,ES,59.13,scattered clouds,38.4167,-6.4167,Parador de Zafra
326,Mweka,CD,69.37,moderate rain,-4.85,21.5667,Guest House Boshab
327,Beira,MZ,77.52,scattered clouds,-19.8436,34.8389,Beira Terrace Hotel
329,Liverpool,GB,55.94,clear sky,53.4106,-2.9779,Premier Inn Liverpool City Centre (Moorfields) hotel
330,Tautira,PF,81.03,few clouds,-17.7333,-149.15,Pension Oaoa
331,Tairua,NZ,66.36,overcast clouds,-37.0167,175.85,Pacific Harbour Villas
332,Harper,LR,80.6,overcast clouds,4.375,-7.7169,Screensaver
333,Regente Feijo,BR,72.68,clear sky,-22.2214,-51.3028,Hotel Ramos
334,Gravdal,NO,38.75,overcast clouds,68.1214,13.5031,Skreda Rorbusuiter
335,Tamiahua,MX,83.79,scattered clouds,21.2667,-97.45,Mission Of The Sun Hotel
336,Ambunti,PG,75.4,overcast clouds,-4.2365,142.8448,AMBUNTI HIDE INN
337,Issoire,FR,54.66,clear sky,45.55,3.25,ACE Hôtel Issoire
338,Mitsamiouli,KM,82.04,broken clouds,-11.3847,43.2844,Foyer ADM
339,Iskateley,RU,9.0,overcast clouds,67.6803,53.1512,Hostel Agat
341,Oktyabrskoye,RU,48.34,overcast clouds,43.0645,44.7417,Prolesok Mini-hotel
343,Kontagora,NG,82.83,light rain,10.3999,5.4695,Queens Guest Inn
344,Dhilwan,IN,73.85,clear sky,31.5169,75.35,Janj Ghar
345,Rio Verde De Mato Grosso,BR,72.75,clear sky,-18.9181,-54.8442,Quedas Palace Hotel
346,Khuzdar,PK,71.31,scattered clouds,27.7384,66.6434,jhalwan Rent A Car Compny Moola Chotok
347,Khor,RU,42.51,overcast clouds,47.8861,134.9464,Gostinitsa Deksi
348,Upata,VE,80.62,overcast clouds,8.0086,-62.3989,Posada Villa Nela
349,Catuday,PH,79.07,broken clouds,16.2923,119.8062,Benjie's Kubo & Cottages
350,Danielskuil,ZA,58.41,overcast clouds,-28.1887,23.5395,Botha'Sig Gastehuis
352,Nongstoin,IN,65.08,overcast clouds,25.5167,91.2667,P.W.D. Inspection Bungalow
353,Kharan,PK,79.21,clear sky,28.5833,65.4167,Dil Aram Bangla
354,Shaunavon,CA,25.0,overcast clouds,49.6501,-108.4181,Bear's Den Lodge
355,Sur,OM,88.48,few clouds,22.5667,59.5289,Sur Plaza Hotel
356,Lucelia,BR,65.53,clear sky,-21.7203,-51.0189,Casa da nathy
357,Straumen,NO,41.0,overcast clouds,63.8709,11.2999,Jægtvolden Fjordhotell
358,Bilibino,RU,22.48,overcast clouds,68.0546,166.4372,Gostinitsa Severyanka
359,Kingseat,GB,51.48,broken clouds,56.0974,-3.4084,"Holiday Inn Express Dunfermline, an IHG Hotel"
360,Wanxian,CN,49.42,overcast clouds,30.8039,108.3897,7Days Inn Chongqing Shiqiaopu
361,Punta Alta,AR,62.71,clear sky,-38.8759,-62.0736,Center Hotel Punta Alta
363,Mier,MX,97.03,overcast clouds,26.4333,-99.15,Mier 09
365,Baoying,CN,43.47,overcast clouds,33.2292,119.3092,GreenTree Alliance Yangzhou Baoying Town Huaijiang Street East Taishan Road Hotel
366,Seoul,KR,45.84,scattered clouds,37.5683,126.9778,롯데호텔 서울
367,Guatire,VE,76.26,broken clouds,10.4762,-66.5427,Parque Residencial Canaima I
368,Takestan,IR,41.68,overcast clouds,36.0696,49.6959,baghdadi hotelهتل و رستوران بغدادی
369,Portland,US,55.99,clear sky,45.5234,-122.6762,Embassy Suites by Hilton Portland Downtown
370,Losser,NL,47.79,overcast clouds,52.2608,7.0042,Hotel Marktzicht
371,Thessalon,CA,28.69,light snow,46.2501,-83.5666,Carolyn Beach Inn & Restaurant
373,Ponferrada,ES,59.11,clear sky,42.5466,-6.5962,Hotel Temple Ponferrada
374,Victoria,HK,72.32,overcast clouds,22.2855,114.1577,Mini Hotel Central
375,Tuatapere,NZ,52.92,scattered clouds,-46.1333,167.6833,Ron and Tony's Bed & Breakfast
376,Vredendal,ZA,61.27,clear sky,-31.6683,18.5012,Tharrakamma Guest House
378,Awbari,LY,73.2,clear sky,26.5921,12.7805,فندق أوباري
379,Pringsewu,ID,73.0,overcast clouds,-5.3582,104.9744,Urban Style by Front One
380,Maragogi,BR,79.97,scattered clouds,-9.0122,-35.2225,Salinas do Maragogi All Inclusive Resort
381,Pirgos,GR,59.63,overcast clouds,35.1167,25.7178,Elpida Village
382,Loviisa,FI,32.29,clear sky,60.4566,26.2251,Loviisa Camping
383,Kruisfontein,ZA,53.89,light rain,-34.0033,24.7314,Oyster Bay House Rental
384,Morant Bay,JM,84.7,clear sky,17.8815,-76.4093,Whispering Bamboo Cove Resort
385,Bilma,NE,87.58,broken clouds,18.6853,12.9164,Expeditions Ténére voyages
386,Nongan,CN,44.49,scattered clouds,44.382,125.1685,Quanhu Resort
387,Luanda,AO,77.29,overcast clouds,-8.8368,13.2343,EPIC SANA Luanda
388,Chany,RU,46.47,scattered clouds,55.3121,76.7647,Sakura
391,Belmonte,BR,78.13,moderate rain,-15.8631,-38.8828,Pousada Monte Carmelo O Pão
392,Morondava,MG,80.15,clear sky,-20.2833,44.2833,La Case Bambou
393,Hirara,JP,70.07,broken clouds,24.8,125.2833,Hotel Atoll Emerald Miyakojima
394,Hervey Bay,AU,69.22,clear sky,-25.2986,152.8535,Shelly Bay Resort
395,Yelnya,RU,37.54,light rain,54.5786,33.1837,Gostinitsa Tsentral'naya
396,Listvyagi,RU,35.33,clear sky,53.6772,86.951,Hotel Yeti House
397,Timizart,DZ,54.27,overcast clouds,36.8,4.2667,yefssah restaurant
398,Quimper,FR,54.18,clear sky,48.0,-4.1,Hôtel Oceania Quimper
399,Sisimiut,GL,16.02,clear sky,66.9395,-53.6735,Hotel Sisimiut
400,Cockburn Town,TC,77.56,few clouds,21.4612,-71.1419,Osprey Beach Hotel
401,Asau,RO,54.52,light rain,46.4333,26.4,Casa Mika Ciobanus
402,Ler,SS,78.57,overcast clouds,8.3018,30.1418,Leer Humanitarian Hub
403,Nhulunbuy,AU,77.61,scattered clouds,-12.2333,136.7667,East Arnhem Real Estate
404,Washington,US,47.79,broken clouds,47.5001,-120.5015,"Cashmere Cider Mill Guest Suites, Weddings & Tasting Room"
405,Hamilton,US,69.89,scattered clouds,39.1834,-84.5333,Six Acres Bed & Breakfast
406,Lasa,IT,51.37,broken clouds,46.6166,10.7002,Pension Feldgärtenhof
407,Shingu,JP,53.65,broken clouds,33.7333,135.9833,Shingu UI Hotel
408,Calais,FR,53.62,scattered clouds,50.9167,1.8333,Logis Hôtel Cottage
409,Tura,IN,74.26,broken clouds,25.5198,90.2201,Hotel RIKMAN Continental
412,Morro Bay,US,77.18,broken clouds,35.3658,-120.8499,Inn at Morro Bay
413,Inhambane,MZ,75.81,moderate rain,-23.865,35.3833,Oceano
414,Pastavy,BY,35.92,overcast clouds,55.1168,26.8326,Mini gostinitca Shirki
415,Benguela,AO,75.96,overcast clouds,-12.5763,13.4055,Hotel Praia Morena
416,Tigil,RU,26.37,light snow,57.8,158.6667,Tigil'
417,Oskemen,KZ,39.0,clear sky,49.9565,82.6119,Dedeman Oskemen Tavros Hotel
419,Puerto Baquerizo Moreno,EC,79.79,broken clouds,-0.9,-89.6,Hotel los Algarrobos
420,Saint Anthony,US,34.25,overcast clouds,45.0205,-93.218,"Holiday Inn Express Roseville-St. Paul, an IHG Hotel"
421,Sorkjosen,NO,32.0,overcast clouds,69.8,20.9333,Reisafjord Hotel AS
422,Tual,ID,84.06,overcast clouds,-5.6667,132.75,Grand Vilia Hotel
423,Zhigalovo,RU,31.64,overcast clouds,54.8097,105.1578,"Hotel ""Lenatur"""
424,Khurai,IN,83.21,clear sky,24.0436,78.3319,Shehnai Garden Hotel & Restaurant Khurai
425,Ayan,RU,23.43,overcast clouds,56.45,138.1667,Gostinitsa
426,Kenai,US,45.03,overcast clouds,60.5544,-151.2583,Aspen Extended Stay Suites
427,Seversk,RU,41.95,broken clouds,56.6006,84.8864,Dom Spetsialista
429,Zhezkazgan,KZ,59.27,broken clouds,47.8043,67.7144,Hotel Zumrat
430,Kaitangata,NZ,51.62,broken clouds,-46.2817,169.8464,Kaitangata Motor Camp
431,Baghdad,IQ,62.51,clear sky,33.3406,44.4009,Baghdad Hotel
432,Moranbah,AU,68.88,clear sky,-22.0016,148.0466,Direct Hotels - Monterey Moranbah
433,Aklavik,CA,5.9,overcast clouds,68.2191,-135.0107,Aklavik Inn
434,Monrovia,LR,76.77,overcast clouds,6.3005,-10.7969,Sunset Inn
435,Neuquen,AR,71.73,clear sky,-38.9516,-68.0591,Hotel del Comahue
436,Aswan,EG,78.42,clear sky,24.0934,32.907,Nuba Nile
437,Khandyga,RU,8.73,few clouds,62.6667,135.6,Apel'sin
438,Grande Prairie,CA,34.65,overcast clouds,55.1667,-118.8027,"Holiday Inn Express Grande Prairie, an IHG Hotel"
439,Port Lincoln,AU,65.88,clear sky,-34.7333,135.8667,Port Lincoln Hotel
440,Santa Rosa,PH,80.02,broken clouds,14.3122,121.1114,Erlyn’s Sta Rosa City Home
441,Alta Floresta,BR,74.28,scattered clouds,-9.8756,-56.0861,Floresta Amazonica Hotel
442,Ahome,MX,82.35,overcast clouds,25.9167,-109.1833,LA HOUSE DE LA ALEJANDRA
443,Buerarema,BR,76.21,overcast clouds,-14.9594,-39.2997,POUSADA JEQUITIBÁ BUERAREMA
444,Eureka,US,53.67,overcast clouds,40.8021,-124.1637,Eureka Inn Trademark By Wyndham
445,Necochea,AR,59.29,clear sky,-38.5473,-58.7368,dyd -mar Hotel
447,Torbay,CA,41.29,few clouds,47.6666,-52.7314,Gallows Cove
448,Dingle,PH,75.81,overcast clouds,10.9995,122.6711,SEGAYA PROPERTY
449,Bow Island,CA,26.47,light snow,49.8668,-111.3684,Silver Sage Motel
450,Hearst,CA,31.93,snow,49.6835,-83.6665,Companion
451,Iwanai,JP,40.93,clear sky,42.9744,140.5089,いわない高原ホテル
453,Ixtapa,MX,76.23,broken clouds,20.7,-105.2,hotel la terminal
454,Kemijarvi,FI,27.46,scattered clouds,66.7131,27.4306,Hotelli Kemijärvi
455,Husavik,IS,41.85,overcast clouds,66.0449,-17.3389,Bjarnabúð
456,Sorong,ID,80.1,overcast clouds,-0.8833,131.25,Waigo Splash Hotel
457,Tsabong,BW,66.92,overcast clouds,-26.0217,22.401,Springbok Motel
458,Caravelas,BR,75.7,light rain,-17.7125,-39.2481,Pousada dos Navegantes
459,Muborak,UZ,72.21,overcast clouds,39.2553,65.1528,Muborak temiryoʻl vakzali
460,Batemans Bay,AU,62.1,overcast clouds,-35.7167,150.1833,Batemans Bay Marina Resort
461,Columbus,US,68.34,overcast clouds,39.9612,-82.9988,DoubleTree Suites by Hilton Hotel Columbus Downtown
462,Taixing,CN,45.07,overcast clouds,32.1667,120.0136,7Days Inn Taixing Drum Tower South Road
463,Port Augusta,AU,68.05,clear sky,-32.5,137.7667,Majestic Oasis Apartments
465,Kamina,CD,64.71,overcast clouds,-8.7386,24.9906,Guest House Florvia
466,Tsiroanomandidy,MG,67.41,broken clouds,-18.7667,46.0333,Hotel Ravinala
467,Cherskiy,RU,14.49,overcast clouds,68.75,161.3,Gostinitsa
468,Pacific Grove,US,65.88,clear sky,36.6177,-121.9166,Lovers Point Inn
469,Taikang,CN,44.01,scattered clouds,46.8333,124.4167,Jia Hotel
470,Killam,CA,27.07,overcast clouds,52.7834,-111.8518,Wagon Wheel Motel
471,Buala,SB,78.04,light rain,-8.145,159.5921,Maringe Lagoon Lodge
472,Preobrazheniye,RU,41.85,clear sky,42.9019,133.9064,Campsite Orlan
473,Chengde,CN,41.95,clear sky,40.9725,117.9361,Super 8 Hotel
474,Pudozh,RU,23.9,scattered clouds,61.8099,36.5345,Guest-House na Transportnoy
475,Lima,PE,69.39,clear sky,-12.0432,-77.0282,Hotel Kamana
476,Colares,PT,60.89,few clouds,38.7992,-9.4469,Arribas Sintra Hotel
477,Wanning,CN,76.35,overcast clouds,18.8003,110.3967,Paradise Hotel
478,Boffa,GN,74.5,clear sky,10.1667,-14.0333,Hôtel Niara Belly
479,Muisne,EC,77.92,overcast clouds,0.6,-80.0333,Quinta Samay
480,Beyneu,KZ,53.6,overcast clouds,45.3167,55.2,NUR
481,Grayslake,US,49.75,overcast clouds,42.3445,-88.0417,Comfort Suites Grayslake Near Libertyville North
482,Sola,VU,81.55,overcast clouds,-13.8833,167.55,Leumerus Bungalows
483,Billund,DK,43.41,overcast clouds,55.7335,9.1078,Lalandia i Billund
484,Rocha,UY,60.01,broken clouds,-34.4833,-54.3333,Hotel Arrarte
485,Noumea,NC,77.0,broken clouds,-22.2763,166.4572,Hôtel Le Lagon
486,Lorengau,PG,83.1,broken clouds,-2.0226,147.2712,Lorengau Harbourside Hotel
487,Pemangkat,ID,77.5,overcast clouds,1.1667,108.9667,Ramah Kost KITA
488,Olafsvik,IS,45.82,overcast clouds,64.8945,-23.7142,Hotel Olafsvik
489,Kasempa,ZM,64.87,overcast clouds,-13.4584,25.8338,Lolelunga Forest Reserve
490,Wadi Musa,JO,58.77,broken clouds,30.3222,35.4793,Petra Palace Hotel
491,Cap-Aux-Meules,CA,35.65,light rain,47.3821,-61.8597,Château Madelinot
492,Champasak,LA,73.78,broken clouds,14.75,106.0,Kiat Ngong Wetland BUNGALOW
493,Pa Sang,TH,84.02,clear sky,18.5262,98.9394,โรงแรม จามจุรี 99
494,Makinsk,KZ,52.32,overcast clouds,52.6292,70.4169,Bereke
497,High Rock,BS,75.22,overcast clouds,26.6208,-78.2833,Hideaway Bahamas Beach Club
499,Kurilsk,RU,31.53,overcast clouds,45.2333,147.8833,Hotel Ostrov
501,Dunedin,NZ,55.8,broken clouds,-45.8742,170.5036,Scenic Hotel Southern Cross
502,Boissevain,CA,19.9,overcast clouds,49.2306,-100.0559,Boissevain Campgrounds
503,Cap-Haitien,HT,78.42,few clouds,19.7578,-72.2042,Habitation Jouissant
505,Mocajuba,BR,74.95,overcast clouds,-2.5842,-49.5072,Hotel Saylon Mocajuba
507,Iquitos,PE,86.04,scattered clouds,-3.7481,-73.2472,Cortez Malaga Techy Caroly
508,Venado Tuerto,AR,65.77,clear sky,-33.7456,-61.9688,La Bianca.
509,Dakar,SN,67.08,clear sky,14.6937,-17.4441,Novotel Dakar
510,Grand-Santi,GF,74.08,overcast clouds,4.25,-54.3833,Hotel La Villa Couacou
511,Vangaindrano,MG,74.52,light rain,-23.35,47.6,Hotel Fanilo
512,Jinchang,CN,42.13,overcast clouds,38.4953,102.1739,Mingshihui Jinchang International Hotel
513,Saint-Gaudens,FR,54.01,few clouds,43.0833,0.6667,L'Ardiégeoise
514,Ponta Delgada,PT,63.32,scattered clouds,37.7333,-25.6667,Vila Nova Hotel
515,Gwadar,PK,79.68,clear sky,25.1216,62.3254,Sadaf Resort
516,Meadow Lake,US,78.3,few clouds,34.8014,-106.5436,TumbleWeed RV Park
517,Isla Mujeres,MX,84.25,clear sky,21.2311,-86.731,Hotel La Joya Isla Mujeres
518,Kavieng,PG,82.67,broken clouds,-2.5744,150.7967,Nusa Island Retreat
519,Cap Malheureux,MU,76.46,light rain,-19.9842,57.6142,Pereybere Hotel & Spa
520,Antalaha,MG,75.65,moderate rain,-14.9003,50.2788,Hotel Vitasoa
521,Rabo De Peixe,PT,62.11,scattered clouds,37.8,-25.5833,Quinta das Giestas
522,Kuryk,KZ,52.3,broken clouds,43.2,51.65,Gostinitsa Kuryk - Otel' Dlya Vsekh Kategoriy Kliyentov .
523,Jalu,LY,77.22,broken clouds,29.0331,21.5482,صاحبة الفخامة
524,Nevelsk,RU,35.44,clear sky,46.6733,141.8633,Gostinitsa Viktoriya
525,Lesosibirsk,RU,30.85,overcast clouds,58.2358,92.4828,"""Vitalina"" hotel"
528,Zhigansk,RU,2.43,broken clouds,66.7697,123.3711,Gostinichnyy Kompleks Aylgy
529,Acapulco,MX,85.82,scattered clouds,16.8634,-99.8901,HS Hotsson Smart Acapulco
530,Kloulklubed,PW,82.18,broken clouds,7.0419,134.2556,Storyboard Beach Resort
531,Kavaratti,IN,82.62,scattered clouds,10.5669,72.642,Hotels in Lakshadweep Islands
532,Erenhot,CN,38.68,few clouds,43.6475,111.9767,Erenhot Rurouni Youth Hostel
533,Charters Towers,AU,68.92,clear sky,-20.1,146.2667,Cattleman's Rest Motor Inn
534,Pangkalanbuun,ID,74.73,moderate rain,-2.6833,111.6167,Grand Kecubung Hotel
535,Waipawa,NZ,61.03,few clouds,-41.4122,175.5153,Tora Coastal Walk
536,Yaring,TH,80.29,broken clouds,6.8662,101.3689,สถานที่จัดงานแต่ง SOFEE & DORN
537,Qasigiannguit,GL,16.05,clear sky,68.8193,-51.1922,Almost HOME
538,Requena,ES,55.53,clear sky,39.4883,-1.1004,Hotel Avenida
539,Hemsedal,NO,30.33,overcast clouds,60.8629,8.5534,Hemsetunet Estate AS
540,Vaksdal,NO,41.04,overcast clouds,60.5903,5.8227,Fishing Paradise
541,Hovd,MN,30.87,clear sky,48.0056,91.6419,Hotel Khovd
542,Banjar,ID,77.47,scattered clouds,-8.19,114.9675,The Hamsa Resort
543,Gouyave,GD,81.37,few clouds,12.1646,-61.7296,Rumboat Retreat
544,Bridlington,GB,49.89,overcast clouds,54.0831,-0.1919,Expanse Bridlington Seafront Hotel
545,Pouebo,NC,76.96,few clouds,-20.4,164.5667,RIVÂT LODGE
546,Saint-Joseph,RE,73.78,light rain,-21.3667,55.6167,"""Plantation Bed and Breakfast"
547,Suluq,LY,72.68,broken clouds,31.6682,20.2521,ورشة الحضيري لاكترونات وخدمات النت
548,Sao Miguel Do Araguaia,BR,77.31,overcast clouds,-13.275,-50.1628,Hotel Executivo Palace
551,Zeerust,ZA,61.3,overcast clouds,-25.5369,26.0751,Kareespruit Game Ranch and Guest House
553,Queanbeyan,AU,52.48,overcast clouds,-35.35,149.2333,Parkway Motel
555,Takoradi,GH,80.46,scattered clouds,4.8845,-1.7554,Raybow International Hotel
556,Palu,ID,77.27,overcast clouds,-0.8917,119.8707,Hotel Santika Palu
557,Melo,UY,66.36,overcast clouds,-32.3667,-54.1833,Hotel Juana
558,Mbanza-Ngungu,CD,67.28,overcast clouds,-5.25,14.8667,Hotel Full Business
